% program   : RTKLIB ver.2.4.2
% inp file  : r-
% inp file  : 0
% inp file  : 0
% inp file  : 0
% inp file  : \\srv-stj-data\quarta\11-SERVICE_SUPPORT\11-2_METH_ET_INNO\2023\8971-Calculs_GNSS_IGN\1-DONNEES\1169052a.23o
% inp file  : \\srv-stj-data\quarta\11-SERVICE_SUPPORT\11-2_METH_ET_INNO\2023\8971-Calculs_GNSS_IGN\1-DONNEES\mach052z.23o
% inp file  : \\srv-stj-data\quarta\11-SERVICE_SUPPORT\11-2_METH_ET_INNO\2023\8971-Calculs_GNSS_IGN\1-DONNEES\mach052z.23n
% obs start : 2023/02/21 07:43:02.0 GPST (week2250 200582.0s)
% obs end   : 2023/02/21 10:50:04.0 GPST (week2250 211804.0s)
% pos mode  : moving-base
% freqs     : L1+L2
% solution  : forward
% elev mask : 10.0 deg
% dynamics  : off
% tidecorr  : off
% ionos opt : broadcast
% tropo opt : saastamoinen
% ephemeris : broadcast
% navi sys  : gps glonass
% amb res   : continuous
% amb glo   : on
% val thres : 3.0
% antenna1  :                       ( 0.0000  0.0000  0.0000)
% antenna2  :                       ( 1.0000  6.0000 244.0735)
%
% (e/n/u-baseline=WGS84,Q=1:fix,2:float,3:sbas,4:dgps,5:single,6:ppp,ns=# of satellites)
%  GPST                  e-baseline(m)  n-baseline(m)  u-baseline(m)   Q  ns   sde(m)   sdn(m)   sdu(m)  sden(m)  sdnu(m)  sdue(m) age(s)  ratio
2023/02/21 07:43:30.000     21804.3331     27180.4327      -101.7728   5   2   6.6010  29.3171  29.9874  13.6474  -2.3523   5.0441  -0.00    0.0
2023/02/21 07:44:00.000     21803.3353     27180.7546      -101.6081   5   2   6.5270  29.3176  29.9840  13.6492  -2.4966   5.3560  -0.00    0.0
2023/02/21 07:44:30.000     21802.5986     27180.9080      -101.4699   5   2   6.5101  29.3186  29.9802  13.6449  -2.6318   5.6484  -0.00    0.0
2023/02/21 07:45:00.000     21801.7310     27181.0432      -101.6563   5   2   6.5088  29.3199  29.9760  13.6388  -2.7595   5.9252  -0.00    0.0
2023/02/21 07:45:30.000     21800.9591     27181.4563      -100.9059   5   2   6.5147  29.3212  29.9715  13.6317  -2.8809   6.1888  -0.00    0.0
2023/02/21 07:46:00.000     21800.2808     27181.5657      -100.6999   5   2   6.6624  29.3241  29.9666  13.6096  -2.9936   6.4341  -0.00    0.0
2023/02/21 07:46:30.000     21799.0032     27181.9412      -100.9805   5   2   6.6789  29.3256  29.9613  13.6011  -3.1044   6.6756   0.00    0.0
2023/02/21 07:47:00.000     21798.6946     27181.7126      -101.5415   5   2   6.6971  29.3272  29.9556  13.5922  -3.2108   6.9079   0.00    0.0
2023/02/21 07:47:30.000     21797.8836     27181.6986      -101.0863   5   2   6.7168  29.3289  29.9495  13.5829  -3.3133   7.1321   0.00    0.0
2023/02/21 07:48:00.000     21796.8945     27182.2589      -100.3608   5   2   6.7379  29.3306  29.9431  13.5734  -3.4121   7.3487   0.00    0.0
2023/02/21 07:48:30.000     21795.8374     27182.0688      -101.1680   5   2   6.7605  29.3323  29.9363  13.5634  -3.5076   7.5586   0.00    0.0
2023/02/21 07:49:00.000     21795.0095     27182.3610      -100.3655   5   2   6.7843  29.3341  29.9291  13.5532  -3.6000   7.7621   0.00    0.0
2023/02/21 07:49:30.000     21793.8581     27182.7810      -100.3279   5   2   6.8096  29.3359  29.9215  13.5426  -3.6895   7.9598   0.00    0.0
2023/02/21 07:50:00.000     21793.2999     27182.8932      -100.6532   5   2   6.8361  29.3378  29.9136  13.5317  -3.7764   8.1520   0.00    0.0
2023/02/21 07:50:30.000     21792.4589     27183.1866      -100.3537   5   2   6.8638  29.3397  29.9053  13.5204  -3.8607   8.3392   0.00    0.0
2023/02/21 07:51:00.000     21791.5934     27183.5339      -100.2030   5   2   6.8928  29.3417  29.8967  13.5088  -3.9428   8.5217   0.00    0.0
2023/02/21 07:51:30.000     21790.6390     27183.5501       -99.9228   5   2   6.9230  29.3437  29.8877  13.4969  -4.0226   8.6998   0.00    0.0
2023/02/21 07:52:00.000     21790.0176     27183.5493       -99.7363   5   2   6.9544  29.3458  29.8784  13.4846  -4.1003   8.8737   0.00    0.0
2023/02/21 07:52:30.000     21789.3989     27183.7706       -99.3601   5   2   6.9869  29.3479  29.8687  13.4721  -4.1760   9.0436   0.00    0.0
2023/02/21 07:53:00.000     21788.1696     27183.9598       -99.1666   5   2   7.0205  29.3501  29.8587  13.4591  -4.2499   9.2098   0.00    0.0
2023/02/21 07:53:30.000     21787.5576     27183.9534       -99.0648   5   2   7.0552  29.3523  29.8484  13.4459  -4.3219   9.3724   0.00    0.0
2023/02/21 07:54:00.000     21786.7385     27184.0412       -99.3809   5   2   7.0910  29.3545  29.8377  13.4323  -4.3922   9.5317   0.00    0.0
2023/02/21 07:54:30.000     21785.6716     27184.1537       -99.5434   5   2   7.1278  29.3568  29.8266  13.4183  -4.4609   9.6878   0.00    0.0
2023/02/21 07:55:00.000     21785.0358     27184.8991       -98.6910   5   2   7.1656  29.3592  29.8153  13.4041  -4.5279   9.8408   0.00    0.0
2023/02/21 07:55:30.000     21784.3371     27184.6527       -98.9580   5   2   7.2043  29.3616  29.8036  13.3895  -4.5935   9.9908   0.00    0.0
2023/02/21 07:56:00.000     21783.5817     27185.1633       -98.3923   5   2   7.2438  29.3640  29.7915  13.3746  -4.6576  10.1381   0.00    0.0
2023/02/21 07:56:30.000     21782.9207     27185.2317       -98.5973   5   2   7.2846  29.3665  29.7792  13.3593  -4.7202  10.2826   0.00    0.0
2023/02/21 07:57:00.000     21782.3368     27185.1860       -98.0902   5   2   7.3261  29.3690  29.7665  13.3437  -4.7815  10.4246   0.00    0.0
2023/02/21 07:57:30.000     21781.0905     27185.3622       -97.8462   5   2   7.3683  29.3716  29.7535  13.3278  -4.8415  10.5641   0.00    0.0
2023/02/21 07:58:00.000     21780.6409     27185.5413       -97.6719   5   2   7.4115  29.3742  29.7402  13.3116  -4.9002  10.7012   0.00    0.0
2023/02/21 07:58:30.000     21780.2109     27185.5284       -97.3707   5   2   7.4555  29.3769  29.7266  13.2950  -4.9576  10.8359   0.00    0.0
2023/02/21 07:59:00.000     21778.9520     27186.1746       -97.2376   5   2   7.5002  29.3796  29.7127  13.2781  -5.0139  10.9684  -0.00    0.0
2023/02/21 07:59:30.000     21778.1981     27186.7491       -97.4500   5   2   7.5455  29.3823  29.6985  13.2608  -5.0689  11.0988  -0.00    0.0
2023/02/21 08:00:00.000     21777.6817     27186.7011       -97.2349   5   2   7.5919  29.3851  29.6840  13.2433  -5.1229  11.2271  -0.00    0.0
2023/02/21 08:00:30.000     21776.5901     27186.4444       -96.3686   5   2   7.6388  29.3879  29.6692  13.2254  -5.1757  11.3534  -0.00    0.0
2023/02/21 08:01:00.000     21775.5626     27186.3540       -96.1504   5   2   7.6863  29.3908  29.6540  13.2071  -5.2274  11.4777  -0.00    0.0
2023/02/21 08:01:30.000     21774.9471     27186.8328       -96.1261   5   2   7.7346  29.3937  29.6386  13.1886  -5.2780  11.6001  -0.00    0.0
2023/02/21 08:02:00.000     21774.1012     27186.6516       -95.9423   5   2   7.7834  29.3967  29.6229  13.1697  -5.3277  11.7206  -0.00    0.0
2023/02/21 08:02:30.000     21773.2194     27186.8104       -95.7950   5   2   7.8328  29.3997  29.6070  13.1505  -5.3763  11.8394  -0.00    0.0
2023/02/21 08:04:30.000     21770.2943     27187.1864       -95.1059   5   2   8.0360  29.4120  29.5402  13.0704  -5.5609  12.2974  -0.00    0.0
2023/02/21 08:07:00.000     21766.6673     27188.1491       -93.0965   5   2   8.3008  29.4283  29.4508  12.9629  -5.7712  12.8349  -0.00    0.0
2023/02/21 08:07:30.000     21765.8632     27188.0845       -92.8788   5   2   8.3549  29.4317  29.4321  12.9404  -5.8107  12.9381  -0.00    0.0
2023/02/21 08:08:00.000     21765.3489     27188.4865       -92.5466   5   2   8.4095  29.4351  29.4132  12.9176  -5.8493  13.0399  -0.00    0.0
2023/02/21 08:08:30.000     21764.8122     27188.4164       -92.1563   5   2   8.4644  29.4385  29.3940  12.8945  -5.8871  13.1403  -0.00    0.0
2023/02/21 08:09:00.000     21763.8945     27188.1239       -91.5611   5   2   8.5197  29.4420  29.3746  12.8711  -5.9241  13.2395  -0.00    0.0
2023/02/21 08:09:30.000     21763.3476     27188.4758       -91.5671   5   2   8.5752  29.4455  29.3549  12.8473  -5.9603  13.3374  -0.00    0.0
2023/02/21 08:10:00.000     21762.7138     27188.9154       -90.8905   5   2   8.6311  29.4490  29.3350  12.8232  -5.9958  13.4340  -0.00    0.0
2023/02/21 08:10:30.000     21765.7022     27187.9271       -92.0253   5   2  11.7409  29.4944  29.3673  12.3052  -5.7978  13.0076  -0.00    0.0
2023/02/21 08:11:00.000     21811.3198     27179.1715      -103.3082   5   7  30.0000  30.0000  30.0000   0.0000  -0.0000  -0.0000  -0.00    0.0
2023/02/21 08:11:30.000     21811.0794     27180.0785      -103.6926   5   7  30.0000  30.0000  30.0000  -0.0000  -0.0000   0.0000   0.00    0.0
2023/02/21 08:12:00.000     21811.3801     27177.7348      -103.0542   5   9  30.0000  30.0000  30.0000  -0.0000  -0.0000  -0.0000  -0.00    0.0
2023/02/21 08:12:30.000     21810.7456     27177.0439      -104.4679   5   9  30.0000  30.0000  30.0000  -0.0000  -0.0000  -0.0000  -0.00    0.0
2023/02/21 08:13:00.000     21811.7111     27179.8188      -100.8711   5   8  30.0000  30.0000  30.0000  -0.0000   0.0000   0.0000  -0.00    0.0
2023/02/21 08:13:30.000     21811.5528     27178.2752      -102.7155   5   9  30.0000  30.0000  30.0000  -0.0000  -0.0000  -0.0000  -0.00    0.0
2023/02/21 08:14:00.000     21811.2668     27178.5715      -102.5278   5   9  30.0000  30.0000  30.0000  -0.0000   0.0000   0.0000  -0.00    0.0
2023/02/21 08:14:30.000     21811.0008     27179.2233      -103.7061   5   8  30.0000  30.0000  30.0000  -0.0000  -0.0000  -0.0000  -0.00    0.0
2023/02/21 08:15:00.000     21811.4979     27179.8509      -102.9434   5   9  30.0000  30.0000  30.0000  -0.0000   0.0000  -0.0000  -0.00    0.0
2023/02/21 08:15:30.000     21811.5540     27180.5303      -102.1820   5   8  30.0000  30.0000  30.0000   0.0000  -0.0000   0.0000  -0.00    0.0
2023/02/21 08:16:00.000     21811.6977     27180.1507      -101.6909   5   8  30.0000  30.0000  30.0000  -0.0000  -0.0000  -0.0000  -0.00    0.0
2023/02/21 08:16:30.000     21811.8270     27180.4974      -100.5788   5   8  30.0000  30.0000  30.0000   0.0000  -0.0000  -0.0000  -0.00    0.0
2023/02/21 08:17:00.000     21811.8590     27180.1886      -101.1977   5   8  30.0000  30.0000  30.0000   0.0000   0.0000  -0.0000  -0.00    0.0
2023/02/21 08:17:30.000     21811.7476     27180.1215      -101.6665   5   8  30.0000  30.0000  30.0000  -0.0000  -0.0000  -0.0000  -0.00    0.0
2023/02/21 08:18:00.000     21811.6648     27180.4661      -100.7056   5   8  30.0000  30.0000  30.0000   0.0000   0.0000  -0.0000  -0.00    0.0
2023/02/21 08:18:30.000     21812.0033     27180.5116      -100.5728   5   9  30.0000  30.0000  30.0000  -0.0000  -0.0000   0.0000  -0.00    0.0
2023/02/21 08:19:00.000     21812.0637     27181.0912      -100.0638   5   9  30.0000  30.0000  30.0000  -0.0000   0.0000  -0.0000  -0.00    0.0
2023/02/21 08:19:30.000     21811.4901     27179.6220      -101.7695   5  10  30.0000  30.0000  30.0000  -0.0000  -0.0000   0.0000  -0.00    0.0
2023/02/21 08:20:00.000     21811.5619     27179.0625      -102.2449   5   9  30.0000  30.0000  30.0000   0.0000  -0.0000  -0.0000  -0.00    0.0
2023/02/21 08:20:30.000     21811.5423     27178.8364      -102.4695   5  10  30.0000  30.0000  30.0000  -0.0000   0.0000  -0.0000  -0.00    0.0
2023/02/21 08:21:00.000     21811.3673     27178.8938      -102.3190   5  10  30.0000  30.0000  30.0000   0.0000   0.0000  -0.0000  -0.00    0.0
2023/02/21 08:21:30.000     21811.4862     27178.9806      -101.9281   5  10  30.0000  30.0000  30.0000  -0.0000  -0.0000   0.0000  -0.00    0.0
2023/02/21 08:22:00.000     21811.6007     27179.4219      -101.9903   5  10  30.0000  30.0000  30.0000  -0.0000   0.0000  -0.0000  -0.00    0.0
2023/02/21 08:22:30.000     21811.5650     27179.0534      -102.0124   5  10  30.0000  30.0000  30.0000   0.0000   0.0000  -0.0000  -0.00    0.0
2023/02/21 08:23:00.000     21811.7083     27179.0912      -101.9412   5  10  30.0000  30.0000  30.0000  -0.0000   0.0000  -0.0000  -0.00    0.0
2023/02/21 08:23:30.000     21811.7701     27179.1260      -101.2360   5  10  30.0000  30.0000  30.0000  -0.0000  -0.0000  -0.0000  -0.00    0.0
2023/02/21 08:24:00.000     21811.5767     27179.0017      -101.6474   5  10  30.0000  30.0000  30.0000   0.0000  -0.0000  -0.0000  -0.00    0.0
2023/02/21 08:24:30.000     21811.6197     27178.6964      -102.0243   5  10  30.0000  30.0000  30.0000  -0.0000   0.0000  -0.0000  -0.00    0.0
2023/02/21 08:25:00.000     21811.6039     27179.2633      -101.2590   5  10  30.0000  30.0000  30.0000   0.0000  -0.0000   0.0000  -0.00    0.0
2023/02/21 08:25:30.000     21811.5001     27178.8355      -101.3216   5   9  30.0000  30.0000  30.0000   0.0000  -0.0000   0.0000  -0.00    0.0
2023/02/21 08:26:00.000     21811.5237     27179.2499      -101.7389   5   9  30.0000  30.0000  30.0000   0.0000  -0.0000   0.0000  -0.00    0.0
2023/02/21 08:26:30.000     21811.4084     27179.2689      -101.5769   5   9  30.0000  30.0000  30.0000  -0.0000  -0.0000   0.0000  -0.00    0.0
2023/02/21 08:27:00.000     21811.6412     27179.4314      -101.1601   5  10  30.0000  30.0000  30.0000  -0.0000   0.0000   0.0000  -0.00    0.0
2023/02/21 08:27:30.000     21811.5503     27179.4357      -101.2867   5  10  30.0000  30.0000  30.0000  -0.0000   0.0000  -0.0000  -0.00    0.0
2023/02/21 08:28:00.000     21811.6202     27179.3473      -100.7833   5  10  30.0000  30.0000  30.0000  -0.0000   0.0000   0.0000  -0.00    0.0
2023/02/21 08:28:30.000     21811.6804     27179.9601      -100.8395   5  10  30.0000  30.0000  30.0000   0.0000  -0.0000   0.0000  -0.00    0.0
2023/02/21 08:29:00.000     21811.6294     27179.5269      -101.5891   5   9  30.0000  30.0000  30.0000  -0.0000  -0.0000   0.0000  -0.00    0.0
2023/02/21 08:29:30.000     21811.7517     27179.1968      -102.1985   5   9  30.0000  30.0000  30.0000  -0.0000  -0.0000   0.0000  -0.00    0.0
2023/02/21 08:30:00.000     21811.5155     27179.5070      -102.4552   5   9  30.0000  30.0000  30.0000  -0.0000   0.0000   0.0000  -0.00    0.0
2023/02/21 08:30:30.000     21811.5167     27179.4201      -102.3775   5   9  30.0000  30.0000  30.0000   0.0000  -0.0000   0.0000  -0.00    0.0
2023/02/21 08:31:00.000     21811.4929     27179.2459      -102.2928   5   9  30.0000  30.0000  30.0000   0.0000   0.0000  -0.0000  -0.00    0.0
2023/02/21 08:31:30.000     21811.4055     27179.1361      -102.4205   5   9  30.0000  30.0000  30.0000  -0.0000  -0.0000  -0.0000  -0.00    0.0
2023/02/21 08:32:00.000     21811.4512     27179.0316      -101.8205   5   9  30.0000  30.0000  30.0000  -0.0000   0.0000  -0.0000  -0.00    0.0
2023/02/21 08:32:30.000     21811.4895     27179.1161      -102.1022   5   9  30.0000  30.0000  30.0000   0.0000  -0.0000   0.0000  -0.00    0.0
2023/02/21 08:33:00.000     21811.3425     27179.2924      -101.8654   5   9  30.0000  30.0000  30.0000  -0.0000  -0.0000  -0.0000  -0.00    0.0
2023/02/21 08:33:30.000     21811.5257     27179.2487      -101.1363   5   9  30.0000  30.0000  30.0000  -0.0000  -0.0000   0.0000  -0.00    0.0
2023/02/21 08:34:00.000     21811.5319     27179.6204      -102.2934   5   8  30.0000  30.0000  30.0000  -0.0000   0.0000   0.0000  -0.00    0.0
2023/02/21 08:34:30.000     21811.7995     27179.0648      -101.3568   5   9  30.0000  30.0000  30.0000  -0.0000   0.0000  -0.0000  -0.00    0.0
2023/02/21 08:35:00.000     21811.7013     27178.8918      -101.9911   5   9  30.0000  30.0000  30.0000   0.0000   0.0000   0.0000  -0.00    0.0
2023/02/21 08:35:30.000     21811.6375     27179.2676      -101.2190   5   9  30.0000  30.0000  30.0000  -0.0000  -0.0000   0.0000  -0.00    0.0
2023/02/21 08:36:00.000     21811.3648     27179.2842      -101.2505   5   9  30.0000  30.0000  30.0000  -0.0000  -0.0000   0.0000  -0.00    0.0
2023/02/21 08:36:30.000     21811.7736     27179.0387      -101.7687   5   9  30.0000  30.0000  30.0000  -0.0000  -0.0000  -0.0000  -0.00    0.0
2023/02/21 08:37:00.000     21811.3313     27179.6517      -102.3583   5   9  30.0000  30.0000  30.0000   0.0000  -0.0000   0.0000   0.00    0.0
2023/02/21 08:37:30.000     21846.7891     27156.4431       -93.7648   5   2  17.1421  25.2597  29.4777  19.9617   9.4977 -11.7141  -0.00    0.0
2023/02/21 08:38:00.000     21845.4070     27156.5915       -93.9352   5   2  17.2870  25.1288  29.5049  20.0447   9.4312 -11.5361  -0.00    0.0
2023/02/21 08:38:30.000     21844.5200     27157.0617       -94.3944   5   2  17.4325  24.9969  29.5314  20.1246   9.3604 -11.3561  -0.00    0.0
2023/02/21 08:39:00.000     21843.3247     27157.2236       -94.7100   5   2  17.5783  24.8639  29.5571  20.2012   9.2853 -11.1741  -0.00    0.0
2023/02/21 08:39:30.000     21841.9797     27157.5213       -95.7016   5   2  17.7246  24.7299  29.5821  20.2748   9.2058 -10.9900  -0.00    0.0
2023/02/21 08:40:00.000     21841.1423     27158.1677       -95.8437   5   2  17.8711  24.5950  29.6064  20.3452   9.1220 -10.8037  -0.00    0.0
2023/02/21 08:40:30.000     21839.9625     27158.8730       -96.4216   5   2  18.0178  24.4591  29.6299  20.4125   9.0336 -10.6153  -0.00    0.0
2023/02/21 08:41:00.000     21838.6899     27159.0379       -96.5845   5   2  18.1646  24.3225  29.6527  20.4768   8.9407 -10.4247  -0.00    0.0
2023/02/21 08:41:30.000     21837.5901     27159.7515       -97.0273   5   2  18.3115  24.1849  29.6748  20.5381   8.8432 -10.2318  -0.00    0.0
2023/02/21 08:42:00.000     21836.5296     27160.2405       -97.2052   5   2  18.4583  24.0467  29.6961  20.5964   8.7410 -10.0366  -0.00    0.0
2023/02/21 08:42:30.000     21835.5659     27160.5597       -97.5377   5   2  18.6051  23.9076  29.7167  20.6518   8.6340  -9.8390  -0.00    0.0
2023/02/21 08:43:00.000     21834.5226     27161.0434       -98.5828   5   2  18.7517  23.7679  29.7365  20.7042   8.5220  -9.6388   0.00    0.0
2023/02/21 08:43:30.000     21833.2206     27161.9314       -97.9516   5   2  18.8981  23.6276  29.7556  20.7537   8.4051  -9.4360  -0.00    0.0
2023/02/21 08:44:00.000     21832.3012     27162.2776       -98.2123   5   2  19.0443  23.4866  29.7740  20.8003   8.2829  -9.2306   0.00    0.0
2023/02/21 08:44:30.000     21831.1493     27162.8047       -98.6470   5   2  19.1901  23.3451  29.7916  20.8442   8.1555  -9.0222   0.00    0.0
2023/02/21 08:45:00.000     21830.1415     27163.3037       -99.1070   5   2  19.3355  23.2030  29.8085  20.8852   8.0225  -8.8109   0.00    0.0
2023/02/21 08:45:30.000     21829.2280     27164.3087       -98.9477   5   2  19.4805  23.0605  29.8246  20.9234   7.8838  -8.5965   0.00    0.0
2023/02/21 08:46:00.000     21828.2181     27164.8810       -99.5919   5   2  19.6250  22.9175  29.8400  20.9589   7.7393  -8.3787   0.00    0.0
2023/02/21 08:46:30.000     21827.1657     27165.0404      -100.3794   5   2  19.7690  22.7741  29.8547  20.9917   7.5886  -8.1574  -0.00    0.0
2023/02/21 08:47:00.000     21826.3326     27166.4260       -99.8357   5   2  19.9124  22.6303  29.8687  21.0218   7.4314  -7.9323  -0.00    0.0
2023/02/21 08:47:30.000     21824.6020     27166.2407       -99.0759   5   2  20.0551  22.4863  29.8819  21.0493   7.2674  -7.7031  -0.00    0.0
2023/02/21 08:48:00.000     21824.2353     27167.2288      -100.0933   5   2  20.1972  22.3419  29.8944  21.0741   7.0963  -7.4696  -0.00    0.0
2023/02/21 08:48:30.000     21823.2509     27168.1824      -100.7013   5   2  20.3386  22.1974  29.9061  21.0963   6.9176  -7.2314  -0.00    0.0
2023/02/21 08:49:00.000     21822.4403     27169.1168      -100.8913   5   2  20.4793  22.0526  29.9172  21.1160   6.7309  -6.9880   0.00    0.0
2023/02/21 08:49:30.000     21821.4482     27169.6411      -100.8512   5   2  20.6192  21.9077  29.9275  21.1332   6.5354  -6.7388  -0.00    0.0
2023/02/21 08:50:00.000     21820.3728     27170.3066      -101.6571   5   2  20.7582  21.7627  29.9372  21.1479   6.3306  -6.4835   0.00    0.0
2023/02/21 08:50:30.000     21818.9535     27170.8193      -101.0513   5   2  20.8964  21.6176  29.9461  21.1601   6.1155  -6.2211  -0.00    0.0
2023/02/21 08:51:00.000     21818.7026     27172.3908      -100.9314   5   2  21.0337  21.4725  29.9543  21.1698   5.8893  -5.9509  -0.00    0.0
2023/02/21 08:51:30.000     21817.8828     27172.9223      -101.6776   5   2  21.1701  21.3273  29.9618  21.1772   5.6506  -5.6717  -0.00    0.0
2023/02/21 08:52:00.000     21816.9746     27173.6481      -101.6538   5   2  21.3056  21.1823  29.9686  21.1822   5.3979  -5.3822  -0.00    0.0
2023/02/21 08:52:30.000     21816.0813     27174.5027      -101.7704   5   2  21.4401  21.0373  29.9748  21.1848   5.1293  -5.0807  -0.00    0.0
2023/02/21 08:53:00.000     21815.2773     27175.3160      -101.6406   5   2  21.5736  20.8924  29.9802  21.1851   4.8423  -4.7649  -0.00    0.0
2023/02/21 08:53:30.000     21814.2810     27176.0760      -101.5852   5   2  21.7061  20.7478  29.9850  21.1832   4.5336  -4.4320  -0.00    0.0
2023/02/21 08:54:00.000     21813.2717     27176.9638      -102.0661   5   2  21.8376  20.6033  29.9891  21.1790   4.1984  -4.0776  -0.00    0.0
2023/02/21 08:54:30.000     21812.6907     27177.5699      -102.1624   5   2  21.9680  20.4591  29.9925  21.1725   3.8300  -3.6958  -0.00    0.0
2023/02/21 08:55:00.000     21811.5450     27178.0578      -102.1379   5   2  22.0973  20.3151  29.9953  21.1639   3.4180  -3.2769  -0.00    0.0
2023/02/21 08:55:30.000     21810.5663     27179.0736      -101.7933   5   2  22.2256  20.1715  29.9975  21.1531   2.9441  -2.8045  -0.00    0.0
2023/02/21 08:56:00.000     21810.0804     27180.1331      -101.6905   5   2  22.3527  20.0282  29.9989  21.1402   2.3721  -2.2451  -0.00    0.0
2023/02/21 08:56:30.000     21809.4402     27181.0063      -102.1790   5   2  22.4787  19.8853  29.9998  21.1252   1.5999  -1.5047  -0.00    0.0
2023/02/21 08:57:00.000     21809.1194     27182.0281      -101.8577   5   2  22.6101  19.7527  30.0000  21.1000  -0.7287   0.6809  -0.00    0.0
2023/02/21 08:57:30.000     21807.7899     27182.5768      -101.4475   5   2  22.7336  19.6108  29.9996  21.0810  -1.9086   1.7723  -0.00    0.0
2023/02/21 08:58:00.000     21807.4044     27183.5427      -102.1619   5   2  22.8560  19.4695  29.9985  21.0598  -2.6032   2.4020  -0.00    0.0
2023/02/21 08:58:30.000     21806.7765     27184.3524      -102.7106   5   2  22.9772  19.3287  29.9969  21.0367  -3.1514   2.8895  -0.00    0.0
2023/02/21 08:59:00.000     21806.2818     27185.1435      -101.9198   5   2  23.0973  19.1885  29.9946  21.0117  -3.6201   3.2984  -0.00    0.0
2023/02/21 08:59:30.000     21805.5335     27186.0409      -101.8100   5   2  23.2161  19.0489  29.9918  20.9847  -4.0370   3.6553  -0.00    0.0
2023/02/21 09:00:00.000     21804.8326     27187.0752      -101.6099   5   2  23.3337  18.9099  29.9883  20.9558  -4.4167   3.9741  -0.00    0.0
2023/02/21 09:00:30.000     21804.3957     27188.2181      -101.5893   5   2  23.4501  18.7717  29.9843  20.9250  -4.7680   4.2634  -0.00    0.0
2023/02/21 09:01:00.000     21803.6766     27189.1529      -101.7236   5   2  23.5653  18.6341  29.9797  20.8924  -5.0965   4.5289  -0.00    0.0
2023/02/21 09:01:30.000     21803.2810     27190.1271      -101.5533   5   2  23.6793  18.4973  29.9745  20.8580  -5.4064   4.7745  -0.00    0.0
2023/02/21 09:02:00.000     21802.3960     27190.7502      -101.3556   5   2  23.7920  18.3612  29.9687  20.8218  -5.7007   5.0031  -0.00    0.0
2023/02/21 09:02:30.000     21801.8609     27191.8481      -101.2920   5   2  23.9036  18.2261  29.9624  20.7838  -5.9814   5.2171  -0.00    0.0
2023/02/21 09:03:00.000     21801.4269     27192.9344      -101.3656   5   2  24.0138  18.0917  29.9555  20.7440  -6.2505   5.4181  -0.00    0.0
2023/02/21 09:03:30.000     21800.8150     27193.5482      -100.9721   5   2  24.1229  17.9582  29.9481  20.7026  -6.5091   5.6075  -0.00    0.0
2023/02/21 09:04:00.000     21800.2151     27194.3010      -101.0219   5   2  24.2307  17.8257  29.9402  20.6595  -6.7586   5.7866  -0.00    0.0
2023/02/21 09:04:30.000     21799.6708     27195.3428      -100.9188   5   2  24.3372  17.6941  29.9318  20.6147  -6.9997   5.9562  -0.00    0.0
2023/02/21 09:05:00.000     21799.3086     27196.4806      -100.0523   5   2  24.4425  17.5634  29.9228  20.5682  -7.2333   6.1171  -0.00    0.0
2023/02/21 09:05:30.000     21798.3838     27197.2606       -99.9932   5   2  24.5466  17.4338  29.9133  20.5202  -7.4600   6.2701  -0.00    0.0
2023/02/21 09:06:00.000     21798.2880     27198.6981      -100.5113   5   2  24.6494  17.3052  29.9033  20.4706  -7.6803   6.4156  -0.00    0.0
2023/02/21 09:06:30.000     21797.3971     27199.0975       -99.5026   5   2  24.7510  17.1777  29.8928  20.4194  -7.8947   6.5543  -0.00    0.0
2023/02/21 09:07:00.000     21796.9958     27200.1805       -99.3680   5   2  24.8513  17.0513  29.8818  20.3667  -8.1037   6.6866  -0.00    0.0
2023/02/21 09:07:30.000     21796.2470     27200.8641       -99.3314   5   2  24.9504  16.9261  29.8703  20.3124  -8.3076   6.8128  -0.00    0.0
2023/02/21 09:08:00.000     21795.8289     27201.7073       -98.8396   5   2  25.0483  16.8020  29.8584  20.2567  -8.5067   6.9333  -0.00    0.0
2023/02/21 09:08:30.000     21795.8875     27203.0176       -98.4718   5   2  25.1449  16.6791  29.8460  20.1994  -8.7013   7.0484  -0.00    0.0
2023/02/21 09:09:00.000     21795.5028     27204.0130       -98.2578   5   2  25.2403  16.5575  29.8331  20.1407  -8.8916   7.1585  -0.00    0.0
2023/02/21 09:09:30.000     21795.0180     27204.7762       -98.0120   5   2  25.3345  16.4371  29.8197  20.0807  -9.0779   7.2637  -0.00    0.0
2023/02/21 09:10:00.000     21794.7307     27205.8929       -98.1324   5   2  25.4275  16.3180  29.8060  20.0192  -9.2604   7.3642  -0.00    0.0
2023/02/21 09:10:30.000     21794.4351     27206.7013       -98.0393   5   2  25.5192  16.2002  29.7917  19.9563  -9.4393   7.4603  -0.00    0.0
2023/02/21 09:11:00.000     21793.8869     27207.5429       -96.9979   5   2  25.6097  16.0836  29.7771  19.8921  -9.6147   7.5523  -0.00    0.0
2023/02/21 09:11:30.000     21793.6014     27208.3892       -97.8649   5   2  25.6990  15.9686  29.7620  19.8265  -9.7867   7.6401  -0.00    0.0
2023/02/21 09:12:00.000     21793.5446     27209.9020       -98.7334   5   2  25.7871  15.8548  29.7465  19.7596  -9.9556   7.7241   0.00    0.0
2023/02/21 09:12:30.000     21811.4795     27178.8641      -101.9004   5   8  30.0000  30.0000  30.0000   0.0000   0.0000  -0.0000  -0.00    0.0
2023/02/21 09:13:00.000     21811.4890     27178.7736      -102.1573   5   8  30.0000  30.0000  30.0000   0.0000  -0.0000   0.0000  -0.00    0.0
2023/02/21 09:13:30.000     21811.6004     27178.8521      -102.3303   5   8  30.0000  30.0000  30.0000  -0.0000   0.0000  -0.0000  -0.00    0.0
2023/02/21 09:14:00.000     21811.4808     27179.0523      -102.2141   5   8  30.0000  30.0000  30.0000   0.0000   0.0000  -0.0000  -0.00    0.0
2023/02/21 09:14:30.000     21811.3175     27179.1402      -102.0333   5   8  30.0000  30.0000  30.0000  -0.0000   0.0000  -0.0000  -0.00    0.0
2023/02/21 09:15:00.000     21811.3737     27178.9657      -102.2456   5   8  30.0000  30.0000  30.0000   0.0000  -0.0000   0.0000  -0.00    0.0
2023/02/21 09:15:30.000     21811.2931     27178.8926      -101.9539   5   8  30.0000  30.0000  30.0000  -0.0000  -0.0000   0.0000  -0.00    0.0
2023/02/21 09:16:00.000     21811.5159     27179.2695      -102.1818   5   8  30.0000  30.0000  30.0000  -0.0000  -0.0000   0.0000  -0.00    0.0
2023/02/21 09:16:30.000     21811.4885     27178.9742      -101.7021   5   8  30.0000  30.0000  30.0000  -0.0000   0.0000   0.0000  -0.00    0.0
2023/02/21 09:17:00.000     21811.6489     27178.8631      -102.0555   5   8  30.0000  30.0000  30.0000   0.0000  -0.0000  -0.0000  -0.00    0.0
2023/02/21 09:17:30.000     21811.3234     27178.9099      -102.1486   5   8  30.0000  30.0000  30.0000  -0.0000   0.0000  -0.0000  -0.00    0.0
2023/02/21 09:18:00.000     21811.5446     27178.9279      -102.0566   5   8  30.0000  30.0000  30.0000   0.0000   0.0000  -0.0000  -0.00    0.0
2023/02/21 09:18:30.000     21811.4696     27179.1891      -102.6846   5   8  30.0000  30.0000  30.0000  -0.0000   0.0000   0.0000  -0.00    0.0
2023/02/21 09:19:00.000     21811.4592     27178.9679      -102.3225   5   8  30.0000  30.0000  30.0000  -0.0000  -0.0000   0.0000   0.00    0.0
2023/02/21 09:19:30.000     21811.5692     27179.0373      -102.4019   5   8  30.0000  30.0000  30.0000  -0.0000  -0.0000  -0.0000  -0.00    0.0
2023/02/21 09:20:00.000     21811.3661     27179.0262      -101.9766   5   8  30.0000  30.0000  30.0000  -0.0000  -0.0000  -0.0000  -0.00    0.0
2023/02/21 09:20:30.000     21811.2570     27178.8218      -102.9186   5   8  30.0000  30.0000  30.0000  -0.0000   0.0000  -0.0000  -0.00    0.0
2023/02/21 09:21:00.000     21811.3429     27178.4660      -102.5508   5   9  30.0000  30.0000  30.0000  -0.0000   0.0000  -0.0000  -0.00    0.0
2023/02/21 09:21:30.000     21811.2012     27179.0423      -102.5054   5   9  30.0000  30.0000  30.0000  -0.0000  -0.0000   0.0000  -0.00    0.0
2023/02/21 09:22:00.000     21811.4548     27178.8288      -102.5491   5   9  30.0000  30.0000  30.0000  -0.0000  -0.0000  -0.0000   0.00    0.0
2023/02/21 09:22:30.000     21811.5811     27178.8168      -102.4084   5   9  30.0000  30.0000  30.0000   0.0000   0.0000  -0.0000   0.00    0.0
2023/02/21 09:23:00.000     21811.4942     27178.8271      -102.0450   5   9  30.0000  30.0000  30.0000   0.0000  -0.0000   0.0000  -0.00    0.0
2023/02/21 09:23:30.000     21811.2370     27179.0162      -102.6328   5   9  30.0000  30.0000  30.0000   0.0000  -0.0000  -0.0000  -0.00    0.0
2023/02/21 09:24:00.000     21810.9946     27178.9466      -102.2687   5   9  30.0000  30.0000  30.0000  -0.0000  -0.0000   0.0000  -0.00    0.0
2023/02/21 09:24:30.000     21811.2819     27178.9042      -102.7873   5   9  30.0000  30.0000  30.0000   0.0000   0.0000  -0.0000  -0.00    0.0
2023/02/21 09:25:00.000     21811.6552     27178.8264      -101.9690   5   9  30.0000  30.0000  30.0000  -0.0000  -0.0000   0.0000  -0.00    0.0
2023/02/21 09:25:30.000     21811.3745     27178.4982      -102.6913   5   9  30.0000  30.0000  30.0000  -0.0000  -0.0000  -0.0000  -0.00    0.0
2023/02/21 09:26:00.000     21811.2929     27178.7777      -102.6571   5   9  30.0000  30.0000  30.0000   0.0000  -0.0000   0.0000  -0.00    0.0
2023/02/21 09:26:30.000     21811.2952     27178.7716      -102.5956   5   9  30.0000  30.0000  30.0000  -0.0000  -0.0000  -0.0000  -0.00    0.0
2023/02/21 09:27:00.000     21811.6327     27178.9852      -102.4792   5   9  30.0000  30.0000  30.0000  -0.0000   0.0000  -0.0000  -0.00    0.0
2023/02/21 09:27:30.000     21811.4796     27178.8099      -102.6482   5   9  30.0000  30.0000  30.0000   0.0000  -0.0000   0.0000  -0.00    0.0
2023/02/21 09:28:00.000     21811.5572     27178.7890      -103.0490   5   9  30.0000  30.0000  30.0000   0.0000  -0.0000  -0.0000   0.00    0.0
2023/02/21 09:28:30.000     21811.4634     27178.7670      -102.8879   5   9  30.0000  30.0000  30.0000  -0.0000   0.0000  -0.0000   0.00    0.0
2023/02/21 09:29:00.000     21811.2360     27178.8486      -103.1276   5   9  30.0000  30.0000  30.0000  -0.0000  -0.0000   0.0000   0.00    0.0
2023/02/21 09:29:30.000     21811.4884     27178.6917      -102.5029   5   9  30.0000  30.0000  30.0000   0.0000  -0.0000   0.0000   0.00    0.0
2023/02/21 09:30:00.000     21811.2312     27178.9334      -102.1959   5   9  30.0000  30.0000  30.0000   0.0000   0.0000  -0.0000  -0.00    0.0
2023/02/21 09:30:30.000     21811.1634     27178.6908      -103.0505   5   9  30.0000  30.0000  30.0000   0.0000  -0.0000   0.0000  -0.00    0.0
2023/02/21 09:31:00.000     21811.3942     27178.8724      -102.5593   5   9  30.0000  30.0000  30.0000   0.0000   0.0000  -0.0000  -0.00    0.0
2023/02/21 09:31:30.000     21811.3436     27178.9782      -102.3966   5   9  30.0000  30.0000  30.0000  -0.0000  -0.0000   0.0000  -0.00    0.0
2023/02/21 09:32:00.000     21811.2672     27178.6499      -102.8288   5   9  30.0000  30.0000  30.0000   0.0000   0.0000   0.0000  -0.00    0.0
2023/02/21 09:32:30.000     21811.2114     27178.6398      -102.8922   5   9  30.0000  30.0000  30.0000  -0.0000  -0.0000   0.0000   0.00    0.0
2023/02/21 09:33:00.000     21811.3501     27178.8636      -102.6683   5   9  30.0000  30.0000  30.0000  -0.0000   0.0000  -0.0000   0.00    0.0
2023/02/21 09:33:30.000     21811.4219     27178.7003      -102.6887   5   9  30.0000  30.0000  30.0000   0.0000   0.0000   0.0000   0.00    0.0
2023/02/21 09:34:00.000     21811.1278     27178.9498      -102.6651   5   9  30.0000  30.0000  30.0000   0.0000   0.0000  -0.0000   0.00    0.0
2023/02/21 09:34:30.000     21811.4855     27178.8473      -102.6779   5   9  30.0000  30.0000  30.0000   0.0000   0.0000  -0.0000   0.00    0.0
2023/02/21 09:35:00.000     21811.3232     27178.5865      -103.2090   5   9  30.0000  30.0000  30.0000   0.0000  -0.0000   0.0000   0.00    0.0
2023/02/21 09:35:30.000     21811.3679     27179.1167      -102.4551   5   9  30.0000  30.0000  30.0000   0.0000   0.0000  -0.0000   0.00    0.0
2023/02/21 09:36:00.000     21811.6130     27178.8835      -102.1511   5   9  30.0000  30.0000  30.0000  -0.0000  -0.0000   0.0000   0.00    0.0
2023/02/21 09:36:30.000     21811.5418     27178.8742      -102.2787   5   9  30.0000  30.0000  30.0000  -0.0000  -0.0000  -0.0000   0.00    0.0
2023/02/21 09:37:00.000     21811.4446     27179.0399      -102.7841   5   9  30.0000  30.0000  30.0000  -0.0000   0.0000  -0.0000   0.00    0.0
2023/02/21 09:37:30.000     21811.4383     27178.8445      -102.6643   5   9  30.0000  30.0000  30.0000  -0.0000  -0.0000   0.0000   0.00    0.0
2023/02/21 09:38:00.000     21811.5936     27178.8774      -102.1864   5   9  30.0000  30.0000  30.0000   0.0000   0.0000  -0.0000  -0.00    0.0
2023/02/21 09:38:30.000     21811.2081     27179.1215      -102.8308   5   9  30.0000  30.0000  30.0000   0.0000  -0.0000  -0.0000   0.00    0.0
2023/02/21 09:39:00.000     21811.3925     27178.8705      -102.8213   5   9  30.0000  30.0000  30.0000  -0.0000  -0.0000  -0.0000   0.00    0.0
2023/02/21 09:39:30.000     21811.3733     27179.0162      -102.2023   5   9  30.0000  30.0000  30.0000  -0.0000  -0.0000   0.0000  -0.00    0.0
2023/02/21 09:40:00.000     21811.2735     27178.7451      -101.9450   5   9  30.0000  30.0000  30.0000   0.0000   0.0000   0.0000  -0.00    0.0
2023/02/21 09:40:30.000     21811.3706     27178.7476      -102.2803   5   9  30.0000  30.0000  30.0000  -0.0000   0.0000  -0.0000   0.00    0.0
2023/02/21 09:41:00.000     21811.1598     27178.8400      -102.6025   5   9  30.0000  30.0000  30.0000  -0.0000  -0.0000  -0.0000   0.00    0.0
2023/02/21 09:41:30.000     21811.4246     27178.7888      -102.1838   5   9  30.0000  30.0000  30.0000  -0.0000  -0.0000  -0.0000  -0.00    0.0
2023/02/21 09:42:00.000     21811.3047     27178.8037      -102.4041   5   9  30.0000  30.0000  30.0000   0.0000  -0.0000  -0.0000   0.00    0.0
2023/02/21 09:42:30.000     21811.1949     27179.3360      -102.6167   5  10  30.0000  30.0000  30.0000   0.0000  -0.0000   0.0000   0.00    0.0
2023/02/21 09:43:00.000     21811.3303     27179.1372      -103.0345   5  10  30.0000  30.0000  30.0000  -0.0000   0.0000   0.0000   0.00    0.0
2023/02/21 09:43:30.000     21811.6038     27178.8350      -102.7466   5  10  30.0000  30.0000  30.0000   0.0000   0.0000   0.0000   0.00    0.0
2023/02/21 09:44:00.000     21811.4550     27178.9870      -102.9224   5  10  30.0000  30.0000  30.0000  -0.0000  -0.0000  -0.0000   0.00    0.0
2023/02/21 09:44:30.000     21811.3799     27179.1704      -103.0150   5  10  30.0000  30.0000  30.0000  -0.0000   0.0000   0.0000   0.00    0.0
2023/02/21 09:45:00.000     21811.4512     27179.3277      -102.7759   5  10  30.0000  30.0000  30.0000  -0.0000  -0.0000  -0.0000   0.00    0.0
2023/02/21 09:45:30.000     21811.4959     27178.9699      -102.6901   5  10  30.0000  30.0000  30.0000   0.0000   0.0000   0.0000   0.00    0.0
2023/02/21 09:46:00.000     21811.3433     27178.9950      -102.8395   5  10  30.0000  30.0000  30.0000  -0.0000   0.0000  -0.0000   0.00    0.0
2023/02/21 09:46:30.000     21811.4271     27179.0162      -103.0228   5  10  30.0000  30.0000  30.0000   0.0000  -0.0000  -0.0000   0.00    0.0
2023/02/21 09:47:00.000     21811.5072     27178.9491      -102.7505   5  10  30.0000  30.0000  30.0000   0.0000  -0.0000   0.0000   0.00    0.0
2023/02/21 09:47:30.000     21811.3769     27178.9605      -102.4208   5  10  30.0000  30.0000  30.0000   0.0000   0.0000  -0.0000   0.00    0.0
2023/02/21 09:48:00.000     21811.3447     27178.8680      -102.3266   5  10  30.0000  30.0000  30.0000  -0.0000   0.0000  -0.0000   0.00    0.0
2023/02/21 09:48:30.000     21811.2264     27179.0475      -102.3664   5  10  30.0000  30.0000  30.0000  -0.0000   0.0000   0.0000   0.00    0.0
2023/02/21 09:49:00.000     21811.4706     27178.8873      -102.5754   5  10  30.0000  30.0000  30.0000  -0.0000   0.0000   0.0000   0.00    0.0
2023/02/21 09:49:30.000     21811.5071     27178.7804      -102.3829   5  10  30.0000  30.0000  30.0000  -0.0000  -0.0000   0.0000   0.00    0.0
2023/02/21 09:50:00.000     21811.5776     27178.5911      -102.7277   5  10  30.0000  30.0000  30.0000  -0.0000  -0.0000   0.0000   0.00    0.0
2023/02/21 09:50:30.000     21811.4507     27178.7666      -102.4029   5  10  30.0000  30.0000  30.0000  -0.0000  -0.0000  -0.0000   0.00    0.0
2023/02/21 09:51:00.000     21811.2431     27178.7087      -102.1828   5  10  30.0000  30.0000  30.0000   0.0000  -0.0000  -0.0000   0.00    0.0
2023/02/21 09:51:30.000     21811.2338     27178.7367      -102.3178   5  10  30.0000  30.0000  30.0000   0.0000  -0.0000   0.0000   0.00    0.0
2023/02/21 09:52:00.000     21811.2998     27178.9076      -102.4775   5  10  30.0000  30.0000  30.0000   0.0000  -0.0000  -0.0000   0.00    0.0
2023/02/21 09:52:30.000     21811.4164     27178.6087      -102.2868   5  10  30.0000  30.0000  30.0000  -0.0000   0.0000  -0.0000   0.00    0.0
2023/02/21 09:53:00.000     21811.2980     27178.9115      -102.1271   5  10  30.0000  30.0000  30.0000  -0.0000   0.0000  -0.0000   0.00    0.0
2023/02/21 09:53:30.000     21811.3215     27178.9013      -102.4995   5  10  30.0000  30.0000  30.0000   0.0000   0.0000   0.0000   0.00    0.0
2023/02/21 09:54:00.000     21811.2760     27178.9085      -102.4554   5  10  30.0000  30.0000  30.0000   0.0000   0.0000  -0.0000   0.00    0.0
2023/02/21 09:54:30.000     21811.1513     27179.2414      -102.5747   5  10  30.0000  30.0000  30.0000  -0.0000   0.0000   0.0000   0.00    0.0
2023/02/21 09:55:00.000     21811.3655     27178.7550      -102.7467   5  10  30.0000  30.0000  30.0000  -0.0000   0.0000  -0.0000   0.00    0.0
2023/02/21 09:55:30.000     21811.3648     27178.8050      -102.4502   5  10  30.0000  30.0000  30.0000   0.0000  -0.0000   0.0000   0.00    0.0
2023/02/21 09:56:00.000     21811.4596     27178.9010      -102.1718   5  10  30.0000  30.0000  30.0000  -0.0000   0.0000  -0.0000   0.00    0.0
2023/02/21 09:56:30.000     21811.4062     27179.0569      -102.5823   5  10  30.0000  30.0000  30.0000  -0.0000  -0.0000  -0.0000   0.00    0.0
2023/02/21 09:57:00.000     21811.3799     27179.0153      -102.7623   5  10  30.0000  30.0000  30.0000  -0.0000   0.0000  -0.0000   0.00    0.0
2023/02/21 09:57:30.000     21811.2851     27179.1093      -102.6031   5  10  30.0000  30.0000  30.0000   0.0000  -0.0000  -0.0000   0.00    0.0
2023/02/21 09:58:00.000     21811.2878     27178.8345      -102.5929   5  10  30.0000  30.0000  30.0000   0.0000  -0.0000   0.0000   0.00    0.0
2023/02/21 09:58:30.000     21811.1767     27179.0380      -102.4113   5  10  30.0000  30.0000  30.0000  -0.0000   0.0000  -0.0000   0.00    0.0
2023/02/21 09:59:00.000     21811.1506     27179.2185      -102.4482   5  10  30.0000  30.0000  30.0000   0.0000   0.0000   0.0000   0.00    0.0
2023/02/21 09:59:30.000     21811.2834     27178.9225      -102.5232   5  10  30.0000  30.0000  30.0000  -0.0000  -0.0000  -0.0000   0.00    0.0
2023/02/21 10:00:00.000     21811.5385     27179.0475      -102.7676   5  10  30.0000  30.0000  30.0000   0.0000  -0.0000   0.0000   0.00    0.0
2023/02/21 10:00:30.000     21811.3121     27179.1828      -102.2062   5  10  30.0000  30.0000  30.0000  -0.0000   0.0000  -0.0000   0.00    0.0
2023/02/21 10:01:00.000     21811.3527     27179.0711      -102.4222   5  10  30.0000  30.0000  30.0000  -0.0000  -0.0000   0.0000   0.00    0.0
2023/02/21 10:01:30.000     21811.4808     27179.0865      -102.5414   5  10  30.0000  30.0000  30.0000   0.0000   0.0000   0.0000   0.00    0.0
2023/02/21 10:02:00.000     21811.2702     27179.0064      -102.7348   5  10  30.0000  30.0000  30.0000  -0.0000   0.0000   0.0000   0.00    0.0
2023/02/21 10:02:30.000     21811.2537     27178.9868      -102.6093   5  10  30.0000  30.0000  30.0000   0.0000  -0.0000   0.0000   0.00    0.0
2023/02/21 10:03:00.000     21811.3903     27178.7374      -102.7557   5  10  30.0000  30.0000  30.0000  -0.0000  -0.0000  -0.0000   0.00    0.0
2023/02/21 10:03:30.000     21811.2729     27178.7848      -102.5802   5  10  30.0000  30.0000  30.0000  -0.0000  -0.0000  -0.0000   0.00    0.0
2023/02/21 10:04:00.000     21811.0956     27178.8598      -102.0850   5  10  30.0000  30.0000  30.0000   0.0000   0.0000  -0.0000   0.00    0.0
2023/02/21 10:04:30.000     21811.5410     27177.7839      -102.1556   5   7  30.0000  30.0000  30.0000  -0.0000  -0.0000   0.0000   0.00    0.0
2023/02/21 10:05:00.000     21811.1277     27178.8089      -102.0046   5  10  30.0000  30.0000  30.0000   0.0000  -0.0000  -0.0000   0.00    0.0
2023/02/21 10:05:30.000     21811.4866     27178.6964      -102.5568   5   9  30.0000  30.0000  30.0000   0.0000   0.0000  -0.0000   0.00    0.0
2023/02/21 10:06:00.000     21811.1522     27178.7667      -102.9214   5   9  30.0000  30.0000  30.0000   0.0000   0.0000  -0.0000   0.00    0.0
2023/02/21 10:06:30.000     21811.3060     27178.5039      -102.3165   5   9  30.0000  30.0000  30.0000  -0.0000   0.0000   0.0000   0.00    0.0
2023/02/21 10:07:00.000     21810.9443     27179.2239      -101.7800   5  10  30.0000  30.0000  30.0000  -0.0000   0.0000   0.0000  -0.00    0.0
2023/02/21 10:07:30.000     21810.8229     27179.3403      -101.8214   5  10  30.0000  30.0000  30.0000   0.0000  -0.0000   0.0000  -0.00    0.0
2023/02/21 10:08:00.000     21810.9436     27179.7247      -101.4467   5  10  30.0000  30.0000  30.0000   0.0000  -0.0000  -0.0000  -0.00    0.0
2023/02/21 10:08:30.000     21811.0254     27179.1743      -101.5916   5   9  30.0000  30.0000  30.0000  -0.0000   0.0000  -0.0000  -0.00    0.0
2023/02/21 10:09:00.000     21844.2829     27208.8112       -94.5881   5   2  20.4404  22.5592  29.5813 -20.8388  -9.9384 -10.4726   0.00    0.0
2023/02/21 10:09:30.000     21844.1234     27207.9128       -95.1687   5   2  20.2485  22.7102  29.5977 -20.8306  -9.7970 -10.4109   0.00    0.0
2023/02/21 10:10:00.000     21843.6537     27207.1053       -95.2773   5   2  20.0540  22.8613  29.6139 -20.8191  -9.6537 -10.3461   0.00    0.0
2023/02/21 10:10:30.000     21843.3741     27206.2204       -95.8303   5   2  19.8567  23.0124  29.6299 -20.8043  -9.5086 -10.2782   0.00    0.0
2023/02/21 10:11:00.000     21842.7702     27205.7163       -95.7293   5   2  19.6567  23.1634  29.6457 -20.7860  -9.3616 -10.2069  -0.00    0.0
2023/02/21 10:11:30.000     21842.6189     27204.6470       -95.9544   5   2  19.4540  23.3144  29.6613 -20.7644  -9.2126 -10.1323  -0.00    0.0
2023/02/21 10:12:00.000     21842.3516     27203.8975       -97.0889   5   2  19.2484  23.4652  29.6766 -20.7392  -9.0617 -10.0543   0.00    0.0
2023/02/21 10:12:30.000     21841.5521     27203.2210       -96.7379   5   2  19.0401  23.6159  29.6917 -20.7104  -8.9088  -9.9727  -0.00    0.0
2023/02/21 10:13:00.000     21841.1251     27202.3183       -96.9622   5   2  18.8289  23.7662  29.7065 -20.6780  -8.7540  -9.8874   0.00    0.0
2023/02/21 10:13:30.000     21840.5848     27201.5110       -97.5069   5   2  18.6150  23.9162  29.7211 -20.6419  -8.5972  -9.7984  -0.00    0.0
2023/02/21 10:14:00.000     21840.4634     27200.6498       -97.9476   5   2  18.3983  24.0659  29.7355 -20.6019  -8.4383  -9.7056  -0.00    0.0
2023/02/21 10:14:30.000     21839.8347     27200.1381       -98.5938   5   2  18.1788  24.2151  29.7495 -20.5581  -8.2773  -9.6087  -0.00    0.0
2023/02/21 10:15:00.000     21839.5582     27199.0843       -98.2234   5   2  17.9565  24.3638  29.7633 -20.5104  -8.1142  -9.5077  -0.00    0.0
2023/02/21 10:15:30.000     21838.9070     27198.5317       -98.0955   5   2  17.7314  24.5120  29.7767 -20.4587  -7.9491  -9.4024  -0.00    0.0
2023/02/21 10:16:00.000     21838.3515     27197.6445       -98.7544   5   2  17.5035  24.6595  29.7899 -20.4028  -7.7817  -9.2927  -0.00    0.0
2023/02/21 10:16:30.000     21837.6645     27197.0746       -98.8599   5   2  17.2729  24.8064  29.8028 -20.3428  -7.6121  -9.1784   0.00    0.0
2023/02/21 10:17:00.000     21837.0602     27196.5528       -99.1678   5   2  17.0395  24.9525  29.8153 -20.2786  -7.4403  -9.0593   0.00    0.0
2023/02/21 10:17:30.000     21836.4644     27195.5721       -99.4102   5   2  16.8035  25.0978  29.8275 -20.2100  -7.2662  -8.9354   0.00    0.0
2023/02/21 10:18:00.000     21835.9835     27194.6426       -99.3179   5   2  16.5646  25.2422  29.8394 -20.1370  -7.0898  -8.8062   0.00    0.0
2023/02/21 10:18:30.000     21835.4203     27194.0144       -99.3791   5   2  16.3232  25.3857  29.8509 -20.0595  -6.9109  -8.6717   0.00    0.0
2023/02/21 10:19:00.000     21834.6429     27193.3588      -100.1878   5   2  16.0790  25.5282  29.8620 -19.9775  -6.7296  -8.5316   0.00    0.0
2023/02/21 10:19:30.000     21833.8266     27192.6299      -100.6587   5   2  15.8322  25.6697  29.8728 -19.8908  -6.5457  -8.3857   0.00    0.0
2023/02/21 10:20:00.000     21833.1107     27191.8069      -100.3623   5   2  15.5828  25.8100  29.8832 -19.7994  -6.3591  -8.2336   0.00    0.0
2023/02/21 10:20:30.000     21832.1966     27191.1398      -100.7582   5   2  15.3308  25.9491  29.8932 -19.7032  -6.1699  -8.0750   0.00    0.0
2023/02/21 10:21:00.000     21831.6256     27190.2238      -101.0449   5   2  15.0763  26.0870  29.9029 -19.6020  -5.9778  -7.9095   0.00    0.0
2023/02/21 10:21:30.000     21830.7764     27189.5949      -100.7496   5   2  14.8194  26.2235  29.9121 -19.4958  -5.7827  -7.7369   0.00    0.0
2023/02/21 10:22:00.000     21830.1565     27188.5551      -100.8204   5   2  14.5599  26.3586  29.9209 -19.3846  -5.5845  -7.5565   0.00    0.0
2023/02/21 10:22:30.000     21829.1631     27188.2799      -101.1944   5   2  14.2981  26.4922  29.9293 -19.2681  -5.3829  -7.3680   0.00    0.0
2023/02/21 10:23:00.000     21828.3467     27187.8225      -101.2146   5   2  14.0340  26.6243  29.9373 -19.1464  -5.1779  -7.1706   0.00    0.0
2023/02/21 10:23:30.000     21827.5967     27187.0526      -101.5614   5   2  13.7676  26.7548  29.9448 -19.0193  -4.9690  -6.9638   0.00    0.0
2023/02/21 10:24:00.000     21826.7339     27186.5631      -101.5841   5   2  13.4990  26.8836  29.9519 -18.8867  -4.7561  -6.7466   0.00    0.0
2023/02/21 10:24:30.000     21826.1022     27185.6614      -101.5869   5   2  13.2283  27.0107  29.9585 -18.7486  -4.5387  -6.5183   0.00    0.0
2023/02/21 10:25:00.000     21825.1907     27185.3961      -101.8880   5   2  12.9555  27.1360  29.9646 -18.6047  -4.3163  -6.2775   0.00    0.0
2023/02/21 10:25:30.000     21824.3065     27184.5087      -102.4468   5   2  12.6808  27.2593  29.9703 -18.4551  -4.0883  -6.0229   0.00    0.0
2023/02/21 10:26:00.000     21823.0545     27184.1550      -101.8485   5   2  12.4042  27.3808  29.9755 -18.2995  -3.8540  -5.7529   0.00    0.0
2023/02/21 10:26:30.000     21822.3818     27183.5373      -102.6373   5   2  12.1259  27.5002  29.9802 -18.1379  -3.6124  -5.4651   0.00    0.0
2023/02/21 10:27:00.000     21821.2816     27183.2637      -102.5008   5   2  11.8458  27.6175  29.9845 -17.9702  -3.3622  -5.1568   0.00    0.0
2023/02/21 10:27:30.000     21820.5260     27182.5193      -102.8103   5   2  11.5643  27.7327  29.9882 -17.7962  -3.1014  -4.8242   0.00    0.0
2023/02/21 10:28:00.000     21819.6115     27181.9512      -102.7757   5   2  11.2813  27.8457  29.9914 -17.6158  -2.8276  -4.4620   0.00    0.0
2023/02/21 10:28:30.000     21818.6882     27181.5627      -102.5977   5   2  10.9971  27.9564  29.9942 -17.4289  -2.5368  -4.0626   0.00    0.0
2023/02/21 10:29:00.000     21817.8102     27181.0193      -102.8390   5   2  10.7118  28.0647  29.9964 -17.2352  -2.2226  -3.6138   0.00    0.0
2023/02/21 10:29:30.000     21816.9416     27180.6773      -102.6918   5   2  10.4255  28.1707  29.9981 -17.0348  -1.8739  -3.0944   0.00    0.0
2023/02/21 10:30:00.000     21815.6907     27180.3302      -102.8029   5   2  10.1384  28.2741  29.9992 -16.8273  -1.4664  -2.4605   0.00    0.0
2023/02/21 10:30:30.000     21814.9013     27179.8913      -102.7411   5   2   9.8508  28.3751  29.9999 -16.6126  -0.9266  -1.5805   0.00    0.0
2023/02/21 10:31:00.000     21813.6239     27179.5924      -102.7092   5   2   9.5628  28.4734  30.0000 -16.3906   0.6021   1.0446   0.00    0.0
2023/02/21 10:31:30.000     21812.5308     27179.2906      -103.1043   5   2   9.2764  28.5692  29.9995 -16.1607   1.2295   2.1706   0.00    0.0
2023/02/21 10:32:00.000     21811.5228     27178.8742      -102.5905   5   2   8.9885  28.6622  29.9986 -15.9234   1.6087   2.8915   0.00    0.0
2023/02/21 10:32:30.000     21810.2633     27178.7252      -102.6321   5   2   8.7011  28.7525  29.9971 -15.6780   1.8946   3.4695   0.00    0.0
2023/02/21 10:33:00.000     21809.2397     27178.2220      -102.5693   5   2   8.4144  28.8399  29.9950 -15.4244   2.1250   3.9672  -0.00    0.0
2023/02/21 10:33:30.000     21808.3140     27177.8338      -102.5561   5   2   8.1289  28.9245  29.9924 -15.1622   2.3164   4.4117  -0.00    0.0
2023/02/21 10:34:00.000     21807.3129     27177.7522      -103.5116   5   2   7.8447  29.0061  29.9893 -14.8912   2.4775   4.8175   0.00    0.0
2023/02/21 10:34:30.000     21806.2534     27177.2917      -103.3925   5   2   7.5626  29.0848  29.9856 -14.6110   2.6138   5.1934   0.00    0.0
2023/02/21 10:35:00.000     21805.3320     27177.2683      -103.2568   5   2   7.2831  29.1605  29.9814 -14.3213   2.7288   5.5453   0.00    0.0
2023/02/21 10:35:30.000     21804.1907     27176.9988      -102.7267   5   2   7.0066  29.2331  29.9766 -14.0216   2.8251   5.8773   0.00    0.0
2023/02/21 10:36:00.000     21803.1564     27177.0171      -102.5556   5   2   6.7339  29.3026  29.9713 -13.7114   2.9044   6.1925   0.00    0.0
2023/02/21 10:36:30.000     21802.0095     27176.5938      -102.7040   5   2   6.4657  29.3690  29.9655 -13.3903   2.9679   6.4930   0.00    0.0
2023/02/21 10:37:00.000     21800.8048     27176.8369      -102.1582   5   2   6.2027  29.4322  29.9591 -13.0576   3.0165   6.7808  -0.00    0.0
2023/02/21 10:37:30.000     21799.7837     27176.5301      -102.2572   5   2   5.9460  29.4923  29.9522 -12.7126   3.0510   7.0570   0.00    0.0
2023/02/21 10:38:00.000     21798.7778     27176.6555      -102.1056   5   2   5.6968  29.5490  29.9447 -12.3545   3.0716   7.3230  -0.00    0.0
2023/02/21 10:38:30.000     21797.6483     27176.3609      -102.1822   5   2   5.4561  29.6025  29.9367 -11.9825   3.0787   7.5795  -0.00    0.0
2023/02/21 10:39:00.000     21796.6617     27176.5018      -102.6787   5   2   5.2255  29.6527  29.9282 -11.5954   3.0724   7.8275   0.00    0.0
2023/02/21 10:39:30.000     21795.5533     27176.4023      -102.5719   5   2   5.0065  29.6996  29.9192 -11.1919   3.0524   8.0674   0.00    0.0
2023/02/21 10:40:00.000     21794.2590     27177.1315      -101.9490   5   2   4.8010  29.7432  29.9097 -10.7704   3.0187   8.2999   0.00    0.0
2023/02/21 10:40:30.000     21793.2481     27176.4400      -101.3508   5   2   4.6109  29.7833  29.8996 -10.3291   2.9706   8.5253   0.00    0.0
2023/02/21 10:41:00.000     21792.2143     27176.3600      -101.6264   5   2   4.4384  29.8201  29.8891  -9.8656   2.9076   8.7442   0.00    0.0
2023/02/21 10:41:30.000     21790.9036     27176.6296      -101.5179   5   2   4.2851  29.8535  29.8781  -9.3770   2.8286   8.9569   0.00    0.0
2023/02/21 10:42:00.000     21789.7448     27177.0222      -101.6020   5   2   4.1546  29.8835  29.8666  -8.8594   2.7325   9.1636   0.00    0.0
2023/02/21 10:42:30.000     21788.7781     27177.0355      -100.6484   5   2   4.0483  29.9100  29.8546  -8.3079   2.6173   9.3646   0.00    0.0
2023/02/21 10:43:00.000     21787.6014     27177.2522      -100.0066   5   2   3.9685  29.9331  29.8421  -7.7156   2.4805   9.5602   0.00    0.0
2023/02/21 10:43:30.000     21786.4750     27176.9706      -100.7037   5   2   3.9166  29.9528  29.8292  -7.0726   2.3186   9.7505   0.00    0.0
2023/02/21 10:44:00.000     21785.4704     27177.5443       -99.9996   5   2   3.8938  29.9691  29.8159  -6.3642   2.1258   9.9358   0.00    0.0
2023/02/21 10:44:30.000     21784.5373     27177.5066      -100.1372   5   2   3.9005  29.9819  29.8021  -5.5660   1.8930  10.1162   0.00    0.0
2023/02/21 10:45:00.000     21783.3148     27178.0539       -99.5362   5   2   3.9366  29.9913  29.7878  -4.6326   1.6031  10.2918   0.00    0.0
2023/02/21 10:45:30.000     21782.5098     27178.4405       -99.3548   5   2   4.0010  29.9973  29.7732  -3.4569   1.2165  10.4628   0.00    0.0
2023/02/21 10:46:00.000     21781.6177     27178.7605       -98.7719   5   2   4.0924  29.9999  29.7582  -1.5666   0.5603  10.6293   0.00    0.0
2023/02/21 10:46:30.000     21780.4140     27178.7774       -99.4638   5   2   4.2087  29.9991  29.7427   2.6495  -0.9626  10.7914   0.00    0.0
2023/02/21 10:47:00.000     21779.7250     27179.5292       -98.6604   5   2   4.3479  29.9949  29.7269   4.0578  -1.4968  10.9492   0.00    0.0
2023/02/21 10:47:30.000     21778.7518     27180.0559       -98.3813   5   2   4.5076  29.9873  29.7107   5.0870  -1.9043  11.1029   0.00    0.0
2023/02/21 10:48:00.000     21777.5637     27179.8474       -98.6068   5   2   4.6854  29.9764  29.6941   5.9372  -2.2546  11.2524   0.00    0.0
2023/02/21 10:48:30.000     21776.8009     27180.6907       -98.3339   5   2   4.8791  29.9622  29.6772   6.6765  -2.5708  11.3979   0.00    0.0
2023/02/21 10:49:00.000     21775.9066     27180.8947       -97.3347   5   2   5.0867  29.9447  29.6600   7.3383  -2.8641  11.5395   0.00    0.0
2023/02/21 10:49:30.000     21774.7187     27181.3468       -97.5080   5   2   5.3063  29.9239  29.6424   7.9414  -3.1406  11.6771   0.00    0.0
2023/02/21 10:50:00.000     21773.7692     27181.5077       -97.2146   5   2   5.5362  29.8998  29.6246   8.4982  -3.4042  11.8110   0.00    0.0
